<?xml version="1.0" encoding="UTF-8"?>
<kml xmlns="http://www.opengis.net/kml/2.2">
	<Document>
		<Style id="通常ポイントnormal">
			<IconStyle>
				<scale>1.2</scale>
				<Icon>
					<href>http://maps.google.com/mapfiles/kml/pushpin/ylw-pushpin.png</href>
				</Icon>
			</IconStyle>
		</Style>
		<Style id="通常ポイントhighlight">
			<IconStyle>
				<scale>1.2</scale>
				<Icon>
					<href>http://maps.google.com/mapfiles/kml/pushpin/ylw-pushpin.png</href>
				</Icon>
			</IconStyle>
		</Style>
		<StyleMap id="通常ポイント">
			<Pair>
				<key>normal</key>
				<styleUrl>#通常ポイントnormal</styleUrl>
			</Pair>
			<Pair>
				<key>highlight</key>
				<styleUrl>#通常ポイントhighlight</styleUrl>
			</Pair>
		</StyleMap>
		<Style id="サブポイントnormal">
			<IconStyle>
				<color>ff00ffff</color>
				<scale>2</scale>
				<Icon>
					<href>http://maps.google.com/mapfiles/kml/shapes/donut.png</href>
				</Icon>
			</IconStyle>
			<LabelStyle>
				<scale>2</scale>
			</LabelStyle>
		</Style>
		<Style id="サブポイントhighlight">
			<IconStyle>
				<color>ff00ffff</color>
				<scale>2</scale>
				<Icon>
					<href>http://maps.google.com/mapfiles/kml/shapes/donut.png</href>
				</Icon>
			</IconStyle>
			<LabelStyle>
				<scale>2</scale>
			</LabelStyle>
		</Style>
		<StyleMap id="サブポイント">
			<Pair>
				<key>normal</key>
				<styleUrl>#サブポイントnormal</styleUrl>
			</Pair>
			<Pair>
				<key>highlight</key>
				<styleUrl>#サブポイントhighlight</styleUrl>
			</Pair>
		</StyleMap>
		<Placemark>
			<name>ヤクーツク</name>
			<styleUrl>#サブポイント</styleUrl>
			<Point>
				<coordinates>129.6754745,62.0354523,0</coordinates>
			</Point>
		</Placemark>
		<Placemark>
			<name>ノヴォシビルスク</name>
			<styleUrl>#サブポイント</styleUrl>
			<Point>
				<coordinates>82.99819287568579,55.13500589631612,0</coordinates>
			</Point>
		</Placemark>
		<Placemark>
			<name>モスクワ</name>
			<styleUrl>#通常ポイント</styleUrl>
			<Point>
				<altitudeMode>relativeToGround</altitudeMode>
				<coordinates>37.6172999,55.75582600000001,0</coordinates>
			</Point>
		</Placemark>
		<Placemark>
			<name>東京</name>
			<styleUrl>#通常ポイント</styleUrl>
			<Point>
				<altitudeMode>relativeToGround</altitudeMode>
				<coordinates>139.7690174,35.6803997,0</coordinates>
			</Point>
		</Placemark>
		<Placemark>
			<name>ジャカルタ</name>
			<styleUrl>#通常ポイント</styleUrl>
			<Point>
				<altitudeMode>relativeToGround</altitudeMode>
				<coordinates>106.845599,-6.2087634,0</coordinates>
			</Point>
		</Placemark>
		<Placemark>
			<name>デリー</name>
			<styleUrl>#通常ポイント</styleUrl>
			<Point>
				<altitudeMode>relativeToGround</altitudeMode>
				<coordinates>77.10249019999999,28.7040592,0</coordinates>
			</Point>
		</Placemark>
		<Placemark>
			<name>マニラ</name>
			<styleUrl>#通常ポイント</styleUrl>
			<Point>
				<altitudeMode>relativeToGround</altitudeMode>
				<coordinates>120.9842195,14.5995124,0</coordinates>
			</Point>
		</Placemark>
		<Placemark>
			<name>ソウル</name>
			<styleUrl>#通常ポイント</styleUrl>
			<Point>
				<altitudeMode>relativeToGround</altitudeMode>
				<coordinates>126.9779692,37.566535,0</coordinates>
			</Point>
		</Placemark>
		<Placemark>
			<name>ムンバイ</name>
			<styleUrl>#通常ポイント</styleUrl>
			<Point>
				<altitudeMode>relativeToGround</altitudeMode>
				<coordinates>72.87765589999999,19.0759837,0</coordinates>
			</Point>
		</Placemark>
		<Placemark>
			<name>上海</name>
			<styleUrl>#通常ポイント</styleUrl>
			<Point>
				<altitudeMode>relativeToGround</altitudeMode>
				<coordinates>121.473701,31.230416,0</coordinates>
			</Point>
		</Placemark>
		<Placemark>
			<name>ニューヨーク</name>
			<styleUrl>#通常ポイント</styleUrl>
			<Point>
				<altitudeMode>relativeToGround</altitudeMode>
				<coordinates>-74.0059728,40.7127753,0</coordinates>
			</Point>
		</Placemark>
		<Placemark>
			<name>サンパウロ</name>
			<styleUrl>#通常ポイント</styleUrl>
			<Point>
				<altitudeMode>relativeToGround</altitudeMode>
				<coordinates>-46.63330939999999,-23.55051989999999,0</coordinates>
			</Point>
		</Placemark>
		<Placemark>
			<name>メキシコシティ</name>
			<styleUrl>#通常ポイント</styleUrl>
			<Point>
				<altitudeMode>relativeToGround</altitudeMode>
				<coordinates>-99.13320800000001,19.4326077,0</coordinates>
			</Point>
		</Placemark>
		<Placemark>
			<name>広州市</name>
			<styleUrl>#通常ポイント</styleUrl>
			<Point>
				<altitudeMode>relativeToGround</altitudeMode>
				<coordinates>113.264385,23.12911,0</coordinates>
			</Point>
		</Placemark>
		<Placemark>
			<name>北京</name>
			<styleUrl>#通常ポイント</styleUrl>
			<Point>
				<altitudeMode>relativeToGround</altitudeMode>
				<coordinates>116.4073963,39.90419989999999,0</coordinates>
			</Point>
		</Placemark>
		<Placemark>
			<name>ダッカ</name>
			<styleUrl>#通常ポイント</styleUrl>
			<Point>
				<altitudeMode>relativeToGround</altitudeMode>
				<coordinates>90.4125181,23.810332,0</coordinates>
			</Point>
		</Placemark>
		<Placemark>
			<name>大阪市</name>
			<styleUrl>#通常ポイント</styleUrl>
			<Point>
				<altitudeMode>relativeToGround</altitudeMode>
				<coordinates>135.5022535,34.6937249,0</coordinates>
			</Point>
		</Placemark>
		<Placemark>
			<name>カイロ</name>
			<styleUrl>#通常ポイント</styleUrl>
			<Point>
				<altitudeMode>relativeToGround</altitudeMode>
				<coordinates>31.2357116,30.0444196,0</coordinates>
			</Point>
		</Placemark>
		<Placemark>
			<name>モスクワ</name>
			<styleUrl>#通常ポイント</styleUrl>
			<Point>
				<altitudeMode>relativeToGround</altitudeMode>
				<coordinates>37.6172999,55.75582600000001,0</coordinates>
			</Point>
		</Placemark>
		<Placemark>
			<name>バンコク</name>
			<styleUrl>#通常ポイント</styleUrl>
			<Point>
				<altitudeMode>relativeToGround</altitudeMode>
				<coordinates>100.5017651,13.7563309,0</coordinates>
			</Point>
		</Placemark>
		<Placemark>
			<name>ロサンゼルス</name>
			<styleUrl>#通常ポイント</styleUrl>
			<Point>
				<altitudeMode>relativeToGround</altitudeMode>
				<coordinates>-118.2436849,34.0522342,0</coordinates>
			</Point>
		</Placemark>
		<Placemark>
			<name>コルカタ</name>
			<styleUrl>#通常ポイント</styleUrl>
			<Point>
				<altitudeMode>relativeToGround</altitudeMode>
				<coordinates>88.36389500000001,22.572646,0</coordinates>
			</Point>
		</Placemark>
		<Placemark>
			<name>ブエノスアイレス</name>
			<styleUrl>#通常ポイント</styleUrl>
			<Point>
				<altitudeMode>relativeToGround</altitudeMode>
				<coordinates>-58.3815591,-34.6036844,0</coordinates>
			</Point>
		</Placemark>
		<Placemark>
			<name>ラゴス</name>
			<styleUrl>#通常ポイント</styleUrl>
			<Point>
				<altitudeMode>relativeToGround</altitudeMode>
				<coordinates>3.3792057,6.524379300000001,0</coordinates>
			</Point>
		</Placemark>
		<Placemark>
			<name>テヘラン</name>
			<styleUrl>#通常ポイント</styleUrl>
			<Point>
				<altitudeMode>relativeToGround</altitudeMode>
				<coordinates>51.3889736,35.6891975,0</coordinates>
			</Point>
		</Placemark>
		<Placemark>
			<name>イスタンブル</name>
			<styleUrl>#通常ポイント</styleUrl>
			<Point>
				<altitudeMode>relativeToGround</altitudeMode>
				<coordinates>28.9783589,41.0082376,0</coordinates>
			</Point>
		</Placemark>
		<Placemark>
			<name>カラチ</name>
			<styleUrl>#通常ポイント</styleUrl>
			<Point>
				<altitudeMode>relativeToGround</altitudeMode>
				<coordinates>67.00113639999999,24.8607343,0</coordinates>
			</Point>
		</Placemark>
		<Placemark>
			<name>深セン</name>
			<styleUrl>#通常ポイント</styleUrl>
			<Point>
				<altitudeMode>relativeToGround</altitudeMode>
				<coordinates>114.057865,22.54309599999999,0</coordinates>
			</Point>
		</Placemark>
		<Placemark>
			<name>天津</name>
			<styleUrl>#通常ポイント</styleUrl>
			<Point>
				<altitudeMode>relativeToGround</altitudeMode>
				<coordinates>117.3616476,39.3433574,0</coordinates>
			</Point>
		</Placemark>
		<Placemark>
			<name>キンシャサ</name>
			<styleUrl>#通常ポイント</styleUrl>
			<Point>
				<altitudeMode>relativeToGround</altitudeMode>
				<coordinates>15.2662931,-4.4419311,0</coordinates>
			</Point>
		</Placemark>
		<Placemark>
			<name>成都市</name>
			<styleUrl>#通常ポイント</styleUrl>
			<Point>
				<altitudeMode>relativeToGround</altitudeMode>
				<coordinates>104.066801,30.572815,0</coordinates>
			</Point>
		</Placemark>
		<Placemark>
			<name>リオデジャネイロ</name>
			<styleUrl>#通常ポイント</styleUrl>
			<Point>
				<altitudeMode>relativeToGround</altitudeMode>
				<coordinates>-43.1728965,-22.9068467,0</coordinates>
			</Point>
		</Placemark>
		<Placemark>
			<name>ラホール</name>
			<styleUrl>#通常ポイント</styleUrl>
			<Point>
				<altitudeMode>relativeToGround</altitudeMode>
				<coordinates>74.35874729999999,31.52036960000001,0</coordinates>
			</Point>
		</Placemark>
		<Placemark>
			<name>リマ</name>
			<styleUrl>#通常ポイント</styleUrl>
			<Point>
				<altitudeMode>relativeToGround</altitudeMode>
				<coordinates>-77.042754,-12.0463731,0</coordinates>
			</Point>
		</Placemark>
		<Placemark>
			<name>パリ</name>
			<styleUrl>#通常ポイント</styleUrl>
			<Point>
				<altitudeMode>relativeToGround</altitudeMode>
				<coordinates>2.3522219,48.85661400000001,0</coordinates>
			</Point>
		</Placemark>
		<Placemark>
			<name>ホーチミン</name>
			<styleUrl>#通常ポイント</styleUrl>
			<Point>
				<altitudeMode>relativeToGround</altitudeMode>
				<coordinates>106.6296638,10.8230989,0</coordinates>
			</Point>
		</Placemark>
		<Placemark>
			<name>ロンドン</name>
			<styleUrl>#通常ポイント</styleUrl>
			<Point>
				<altitudeMode>relativeToGround</altitudeMode>
				<coordinates>-0.1277583,51.5073509,0</coordinates>
			</Point>
		</Placemark>
		<Placemark>
			<name>ボゴタ</name>
			<styleUrl>#通常ポイント</styleUrl>
			<Point>
				<altitudeMode>relativeToGround</altitudeMode>
				<coordinates>-74.072092,4.710988599999999,0</coordinates>
			</Point>
		</Placemark>
		<Placemark>
			<name>チェンナイ</name>
			<styleUrl>#通常ポイント</styleUrl>
			<Point>
				<altitudeMode>relativeToGround</altitudeMode>
				<coordinates>80.27071840000001,13.0826802,0</coordinates>
			</Point>
		</Placemark>
		<Placemark>
			<name>チェンナイ</name>
			<styleUrl>#通常ポイント</styleUrl>
			<Point>
				<altitudeMode>relativeToGround</altitudeMode>
				<coordinates>80.27071840000001,13.0826802,0</coordinates>
			</Point>
		</Placemark>
		<Placemark>
			<name>名古屋市</name>
			<styleUrl>#通常ポイント</styleUrl>
			<Point>
				<altitudeMode>relativeToGround</altitudeMode>
				<coordinates>136.9065571,35.18145060000001,0</coordinates>
			</Point>
		</Placemark>
		<Placemark>
			<name>ハイデラバード</name>>
			<styleUrl>#通常ポイント</styleUrl>
			<Point>
				<altitudeMode>relativeToGround</altitudeMode>
				<coordinates>78.486671,17.385044,0</coordinates>
			</Point>
		</Placemark>
		<Placemark>
			<name>ヨハネスブルグ</name>
			<styleUrl>#通常ポイント</styleUrl>
			<Point>
				<altitudeMode>relativeToGround</altitudeMode>
				<coordinates>28.0473051,-26.2041028,0</coordinates>
			</Point>
		</Placemark>
		<Style id="鉄道normal">
			<LineStyle>
				<color>ffffffff</color>
			</LineStyle>
		</Style>
		<Style id="鉄道highlight">
			<LineStyle>
				<color>ffffffff</color>
			</LineStyle>
		</Style>
		<StyleMap id="鉄道">
			<Pair>
				<key>normal</key>
				<styleUrl>#鉄道normal</styleUrl>
			</Pair>
			<Pair>
				<key>highlight</key>
				<styleUrl>#鉄道normal</styleUrl>
			</Pair>
		</StyleMap>
		<Placemark>
			<name>シベリア鉄道</name>
			<styleUrl>#鉄道</styleUrl>
			<LineString>
				<tessellate>1</tessellate>
				<coordinates>
					37.43526144052152,55.76281099622499,0
					60.6653767139753,56.86308612895024,0
					82.88673779030879,55.00632540726853,0
					92.87288772272972,55.99681925931259,0
					104.2659072936146,52.20532964904454,0
					123.9417369232401,53.96907280144772,0
					135.5612263067866,48.51875568263004,0
					131.9102520385481,43.15783333184999,0
				</coordinates>
			</LineString>
		</Placemark>
	</Document>
</kml>